City_ID,City,Lat,Lng,Max Temp,Humidity,Cloudiness,Wind Speed,Country,Date
0,Rikitea,-23.1203,-134.9692,79.52,66,1,6.93,PF,2021-01-16 03:10:03
1,Mataura,-46.1927,168.8643,73.0,63,0,8.99,NZ,2021-01-16 03:10:04
2,Hermanus,-34.4187,19.2345,57.0,93,2,8.63,ZA,2021-01-16 03:10:04
3,Udachnyy,66.4167,112.4,-46.73,75,69,5.93,RU,2021-01-16 03:10:04
4,Qaanaaq,77.484,-69.3632,9.16,91,98,1.59,GL,2021-01-16 03:10:04
5,Nikolskoye,59.7035,30.7861,1.0,78,0,2.24,RU,2021-01-16 03:10:04
6,Tasiilaq,65.6145,-37.6368,32.0,86,75,13.8,GL,2021-01-16 03:10:04
7,Constitucion,-35.3333,-72.4167,54.63,76,0,13.24,CL,2021-01-16 03:09:16
8,Puerto Ayora,-0.7393,-90.3518,73.99,95,86,1.01,EC,2021-01-16 03:10:05
9,Sitka,57.0531,-135.33,42.8,81,90,4.61,US,2021-01-16 03:10:05
10,Witu,-2.3889,40.4382,73.4,94,1,2.19,KE,2021-01-16 03:10:05
11,Byron Bay,-28.65,153.6167,82.4,65,75,13.8,AU,2021-01-16 03:10:05
12,Wanaka,-44.7,169.15,78.51,24,2,7.96,NZ,2021-01-16 03:09:57
13,Geraldton,-28.7667,114.6,95.0,28,0,29.93,AU,2021-01-16 03:10:05
14,Mar Del Plata,-38.0023,-57.5575,70.0,94,0,3.44,AR,2021-01-16 03:07:29
15,Leningradskiy,69.3833,178.4167,-13.95,88,100,6.49,RU,2021-01-16 03:10:05
16,Husavik,66.0449,-17.3389,39.2,75,90,3.44,IS,2021-01-16 03:10:05
17,Kang,-23.6752,22.7876,73.45,65,47,8.43,BW,2021-01-16 03:10:06
18,Guangyuan,32.442,105.823,46.99,63,100,11.99,CN,2021-01-16 03:10:06
19,Bredasdorp,-34.5322,20.0403,64.4,72,0,10.36,ZA,2021-01-16 03:10:06
20,Tuktoyaktuk,69.4541,-133.0374,-13.0,77,40,17.27,CA,2021-01-16 03:10:06
21,Tres Arroyos,-38.3739,-60.2798,68.38,87,1,7.34,AR,2021-01-16 03:10:06
22,Kaitangata,-46.2817,169.8464,66.99,78,16,8.01,NZ,2021-01-16 03:10:06
23,Mahebourg,-20.4081,57.7,78.8,89,20,6.91,MU,2021-01-16 03:10:06
24,Trat,12.5,102.5,86.0,78,0,5.75,TH,2021-01-16 03:10:06
25,Tateyama,34.9833,139.8667,63.0,48,0,8.99,JP,2021-01-16 03:10:06
26,Kununurra,-15.7667,128.7333,96.8,52,22,6.91,AU,2021-01-16 03:10:07
27,Hobart,-42.8794,147.3294,60.8,51,75,13.8,AU,2021-01-16 03:10:07
28,Pochutla,15.7432,-96.4661,75.2,73,40,1.25,MX,2021-01-16 03:10:07
29,Akdepe,42.0551,59.3788,39.2,70,0,11.5,TM,2021-01-16 03:10:07
30,Ribeira Grande,38.5167,-28.7,60.94,83,26,7.67,PT,2021-01-16 03:10:07
31,Shu,43.5983,73.7614,16.93,81,0,2.26,KZ,2021-01-16 03:10:07
32,Bonthe,7.5264,-12.505,76.75,89,8,3.85,SL,2021-01-16 03:10:07
33,Lorengau,-2.0226,147.2712,85.93,68,100,8.21,PG,2021-01-16 03:10:07
34,Airai,-8.9266,125.4092,66.97,100,97,1.79,TL,2021-01-16 03:10:08
35,Iqaluit,63.7506,-68.5145,15.8,79,90,11.5,CA,2021-01-16 03:10:08
36,Barrow,71.2906,-156.7887,-9.4,70,90,16.11,US,2021-01-16 03:10:08
37,Castro,-24.7911,-50.0119,63.75,97,98,8.55,BR,2021-01-16 03:10:08
38,Jamestown,42.097,-79.2353,34.0,93,90,7.47,US,2021-01-16 03:10:08
39,Ponta Do Sol,32.6667,-17.1,53.01,62,29,3.0,PT,2021-01-16 03:10:09
40,Faanui,-16.4833,-151.75,81.81,74,27,11.68,PF,2021-01-16 03:10:09
41,Hithadhoo,-0.6,73.0833,82.22,75,87,14.29,MV,2021-01-16 03:10:09
42,Sunnyside,46.3237,-120.0087,37.0,86,1,1.25,US,2021-01-16 03:10:09
43,Hilo,19.7297,-155.09,78.8,61,1,10.36,US,2021-01-16 03:10:09
44,Zelenoborsk,61.4669,64.0333,-11.36,89,1,3.33,RU,2021-01-16 03:10:09
45,Flinders,-34.5833,150.8552,78.01,36,0,1.01,AU,2021-01-16 03:10:09
46,Albany,42.6001,-73.9662,39.99,71,100,8.05,US,2021-01-16 03:08:42
47,Codrington,-38.2667,141.9667,60.82,70,100,17.49,AU,2021-01-16 03:10:09
48,Changde,29.0464,111.6783,48.92,46,98,14.03,CN,2021-01-16 03:10:09
49,Tiksi,71.6872,128.8694,-9.31,91,100,5.12,RU,2021-01-16 03:10:10
50,Souillac,-20.5167,57.5167,78.8,89,20,6.91,MU,2021-01-16 03:10:10
51,Busselton,-33.65,115.3333,75.99,44,0,7.0,AU,2021-01-16 03:10:10
52,Puerto Maldonado,-12.6,-69.1833,73.78,96,99,1.79,PE,2021-01-16 03:10:10
53,Butaritari,3.0707,172.7902,81.32,78,2,20.69,KI,2021-01-16 03:10:10
54,Meiktila,20.8667,95.8667,71.76,45,4,7.0,MM,2021-01-16 03:09:31
55,Narsaq,60.9167,-46.05,23.0,54,90,5.75,GL,2021-01-16 03:10:10
56,Davila,18.4726,120.5763,82.4,57,20,5.75,PH,2021-01-16 03:10:10
57,Victoria,22.2855,114.1577,69.01,51,77,1.01,HK,2021-01-16 03:08:54
58,Hofn,64.2539,-15.2082,41.02,93,100,24.29,IS,2021-01-16 03:10:11
59,Santa Ines,-3.6667,-45.38,73.27,96,100,2.93,BR,2021-01-16 03:10:11
60,Grand Gaube,-20.0064,57.6608,82.99,79,8,3.0,MU,2021-01-16 03:10:11
61,Tornio,65.8481,24.1466,14.0,85,90,2.3,FI,2021-01-16 03:10:11
62,Caravelas,-17.7125,-39.2481,75.52,90,100,6.53,BR,2021-01-16 03:10:11
63,Montrose,38.4166,-108.2673,28.0,54,2,1.99,US,2021-01-16 03:10:12
64,Upernavik,72.7868,-56.1549,16.21,96,100,8.72,GL,2021-01-16 03:10:12
65,Ardakan,32.31,54.0175,37.4,38,0,2.3,IR,2021-01-16 03:10:12
66,Brae,60.3964,-1.353,42.8,70,75,32.21,GB,2021-01-16 03:10:12
67,Saskylakh,71.9167,114.0833,-19.48,86,100,13.87,RU,2021-01-16 03:10:12
68,Arraial Do Cabo,-22.9661,-42.0278,75.94,88,69,21.52,BR,2021-01-16 03:10:12
69,Sao Filipe,14.8961,-24.4956,71.8,70,100,10.33,CV,2021-01-16 03:10:12
70,Bluff,-46.6,168.3333,73.0,63,10,8.99,NZ,2021-01-16 03:10:13
71,Ostrovnoy,68.0531,39.5131,12.6,95,87,7.67,RU,2021-01-16 03:10:13
72,Palmer,42.1584,-72.3287,39.2,60,90,14.97,US,2021-01-16 03:10:13
73,Kapaa,22.0752,-159.319,77.0,73,1,4.61,US,2021-01-16 03:10:13
74,Bambous Virieux,-20.3428,57.7575,82.99,89,20,6.91,MU,2021-01-16 03:10:13
75,Provideniya,64.3833,-173.3,10.13,93,100,5.39,RU,2021-01-16 03:10:14
76,Kuopio,62.8924,27.677,-5.8,84,0,1.14,FI,2021-01-16 03:10:14
77,Hsinchu,24.8036,120.9686,71.01,52,0,7.0,TW,2021-01-16 03:10:14
78,Aklavik,68.2191,-135.0107,-7.6,77,100,6.91,CA,2021-01-16 03:10:14
79,San Patricio,28.017,-97.5169,50.0,57,1,6.91,US,2021-01-16 03:10:15
80,Frolovo,49.7713,43.6622,15.89,97,100,11.59,RU,2021-01-16 03:10:15
81,Bethel,41.3712,-73.414,39.2,81,90,13.8,US,2021-01-16 03:10:15
82,Pangnirtung,66.1451,-65.7125,2.73,89,100,2.57,CA,2021-01-16 03:10:16
83,Mathathane,-22.2687,28.7495,75.58,78,100,4.34,BW,2021-01-16 03:10:16
84,Kenora,49.8167,-94.4337,21.2,86,90,13.8,CA,2021-01-16 03:09:34
85,Isla Mujeres,21.2311,-86.731,73.99,83,75,5.75,MX,2021-01-16 03:10:16
86,Port Elizabeth,-33.918,25.5701,64.4,88,20,19.57,ZA,2021-01-16 03:06:40
87,Buala,-8.145,159.5921,85.84,66,100,8.28,SB,2021-01-16 03:10:17
88,Saldanha,-33.0117,17.9442,62.6,94,0,4.61,ZA,2021-01-16 03:10:17
89,New Norfolk,-42.7826,147.0587,60.01,69,92,3.0,AU,2021-01-16 03:10:17
90,Chokurdakh,70.6333,147.9167,-6.39,91,100,9.89,RU,2021-01-16 03:10:17
91,Santa Vitoria Do Palmar,-33.5189,-53.3681,72.41,86,100,12.88,BR,2021-01-16 03:10:17
92,Lamar,33.6668,-95.5836,41.0,41,1,13.8,US,2021-01-16 03:10:17
93,Sao Joao Da Barra,-21.6403,-41.0511,76.06,87,40,13.51,BR,2021-01-16 03:10:18
94,Sinjar,36.3209,41.8754,44.87,77,0,7.74,IQ,2021-01-16 03:10:18
95,Punta Arenas,-53.15,-70.9167,53.01,87,0,8.05,CL,2021-01-16 03:05:59
96,Yellowknife,62.456,-114.3525,10.4,85,90,13.8,CA,2021-01-16 03:10:18
97,Mangaratiba,-22.9597,-44.0406,77.0,83,0,2.3,BR,2021-01-16 03:10:19
98,Evensk,61.95,159.2333,-21.35,79,93,2.8,RU,2021-01-16 03:10:19
99,Avarua,-21.2078,-159.775,86.0,74,75,10.36,CK,2021-01-16 03:10:19
100,Mbini,1.574,9.6134,77.0,100,40,6.02,GQ,2021-01-16 03:10:19
101,Cape Town,-33.9258,18.4232,66.0,88,75,10.36,ZA,2021-01-16 03:08:52
102,Ushuaia,-54.8,-68.3,53.6,71,20,4.61,AR,2021-01-16 03:10:19
103,Vaini,-21.2,-175.2,86.0,79,75,10.36,TO,2021-01-16 03:10:19
104,Dikson,73.5069,80.5464,-32.4,79,85,4.29,RU,2021-01-16 03:10:19
105,Longyearbyen,78.2186,15.6401,15.8,79,75,10.36,SJ,2021-01-16 03:10:19
106,Odweyne,9.4092,45.064,61.63,32,70,10.85,SO,2021-01-16 03:10:19
107,Cayenne,4.9333,-52.3333,78.8,94,75,6.91,GF,2021-01-16 03:10:19
108,Tacoronte,28.4769,-16.4102,61.0,71,90,9.22,ES,2021-01-16 03:10:20
109,Chuy,-33.6971,-53.4616,72.73,85,100,12.71,UY,2021-01-16 03:10:20
110,Inverness,57.4791,-4.224,41.0,75,40,13.8,GB,2021-01-16 03:09:38
111,Khatanga,71.9667,102.5,-43.82,79,28,2.95,RU,2021-01-16 03:10:20
112,Lebu,-37.6167,-73.65,55.72,81,0,14.16,CL,2021-01-16 03:10:20
113,Sinnamary,5.3833,-52.95,77.41,87,34,14.0,GF,2021-01-16 03:10:20
114,Ola,59.5833,151.2833,-14.53,79,15,6.89,RU,2021-01-16 03:08:45
115,Bengkulu,-3.8004,102.2655,83.97,60,95,1.7,ID,2021-01-16 03:10:20
116,Iskateley,67.6803,53.1512,-18.49,81,0,3.24,RU,2021-01-16 03:10:20
117,Adrar,20.5022,-10.0711,58.93,26,100,12.55,MR,2021-01-16 03:10:20
118,Fuerte Olimpo,-21.0415,-57.8738,77.31,87,84,6.06,PY,2021-01-16 03:10:21
119,Georgetown,5.4112,100.3354,82.4,78,20,4.61,MY,2021-01-16 03:10:21
120,Saint-Philippe,-21.3585,55.7679,78.8,73,0,4.61,RE,2021-01-16 03:10:21
121,Hasaki,35.7333,140.8333,60.01,63,75,6.91,JP,2021-01-16 03:10:21
122,Bogorodskoye,56.55,37.8833,-0.44,93,100,8.14,RU,2021-01-16 03:10:21
123,Tongliao,43.6125,122.2653,-1.07,86,0,9.1,CN,2021-01-16 03:10:21
124,Kaeo,-35.1,173.7833,80.01,55,16,11.01,NZ,2021-01-16 03:10:21
125,Soyo,-6.1349,12.3689,77.81,78,81,5.23,AO,2021-01-16 03:10:21
126,Stokmarknes,68.5646,14.9108,37.99,84,73,3.0,NO,2021-01-16 03:10:22
127,Christchurch,-43.5333,172.6333,68.0,77,90,19.57,NZ,2021-01-16 03:07:38
128,Numan,9.4667,12.0333,67.3,26,15,1.45,NG,2021-01-16 03:10:22
129,Mecca,21.4267,39.8261,68.76,65,0,3.91,SA,2021-01-16 03:08:42
130,Sabang,5.8933,95.3214,79.25,83,76,13.65,ID,2021-01-16 03:07:27
131,Aksarka,66.5606,67.7975,-5.55,92,100,4.85,RU,2021-01-16 03:10:22
132,Atuona,-9.8,-139.0333,77.67,77,2,13.4,PF,2021-01-16 03:10:22
133,Coihaique,-45.5752,-72.0662,51.8,87,0,3.44,CL,2021-01-16 03:10:22
134,Yerbogachen,61.2767,108.0108,-41.13,80,100,4.14,RU,2021-01-16 03:10:22
135,Entre Rios,-11.9419,-38.0844,70.93,95,55,3.4,BR,2021-01-16 03:10:23
136,Namibe,-15.1961,12.1522,72.03,70,0,5.86,AO,2021-01-16 03:10:23
137,Kavieng,-2.5744,150.7967,76.78,87,100,3.42,PG,2021-01-16 03:10:23
138,Praya,14.9215,-23.5087,69.8,73,0,19.57,CV,2021-01-16 03:10:23
139,Zyryanka,65.75,150.85,-22.25,87,100,3.98,RU,2021-01-16 03:10:23
140,Tual,-5.6667,132.75,83.66,75,64,12.41,ID,2021-01-16 03:10:23
141,Pevek,69.7008,170.3133,-10.16,86,100,4.07,RU,2021-01-16 03:10:24
142,Fairbanks,64.8378,-147.7164,10.4,72,75,3.15,US,2021-01-16 03:10:24
143,Quthing,-30.4,27.7003,61.43,83,28,1.21,LS,2021-01-16 03:10:24
144,Xining,36.6167,101.7667,14.2,86,99,4.16,CN,2021-01-16 03:05:55
145,Kodiak,57.79,-152.4072,35.6,93,90,3.44,US,2021-01-16 03:09:37
146,Carnarvon,-24.8667,113.6333,86.0,79,0,12.66,AU,2021-01-16 03:10:24
147,Ascona,46.1545,8.7733,32.0,93,0,5.97,CH,2021-01-16 03:10:24
148,Nizhniy Kuranakh,58.8353,125.4869,-11.33,87,100,2.04,RU,2021-01-16 03:10:25
149,Bonavista,48.6499,-53.1147,30.99,86,100,8.05,CA,2021-01-16 03:10:25
150,Mizque,-17.941,-65.3402,63.5,76,100,2.84,BO,2021-01-16 03:10:25
151,Tura,25.5198,90.2201,66.42,40,0,1.34,IN,2021-01-16 03:10:25
152,Viedma,-40.8135,-62.9967,63.0,77,27,14.67,AR,2021-01-16 03:10:25
153,Cururupu,-1.8283,-44.8683,75.0,89,37,3.4,BR,2021-01-16 03:10:25
154,Mackenzie,55.2999,-123.1698,35.6,64,1,8.05,CA,2021-01-16 03:10:25
155,Dingle,10.9995,122.6711,78.62,88,80,12.06,PH,2021-01-16 03:10:25
156,Vysokogornyy,50.1167,139.15,0.19,83,0,2.17,RU,2021-01-16 03:10:26
157,George,-33.963,22.4617,60.8,88,20,6.91,ZA,2021-01-16 03:10:26
158,Maceio,-9.6658,-35.7353,71.6,94,20,1.14,BR,2021-01-16 03:09:27
159,Srednekolymsk,67.45,153.6833,-34.1,80,19,2.08,RU,2021-01-16 03:10:26
160,Nerja,36.7585,-3.8873,48.0,51,0,3.0,ES,2021-01-16 03:10:26
161,Yining,29.0361,114.5636,48.88,49,98,6.82,CN,2021-01-16 03:10:26
162,Tautira,-17.7333,-149.15,84.2,65,75,9.22,PF,2021-01-16 03:10:27
163,Isangel,-19.55,169.2667,86.0,84,90,9.22,VU,2021-01-16 03:10:27
164,Romny,50.751,33.4747,7.83,93,52,7.29,UA,2021-01-16 03:10:27
165,Salalah,17.0151,54.0924,73.4,17,0,11.5,OM,2021-01-16 03:10:27
166,Villa Carlos Paz,-31.4241,-64.4978,73.0,93,82,3.04,AR,2021-01-16 03:06:20
167,Goderich,43.7501,-81.7165,35.6,87,100,12.66,CA,2021-01-16 03:08:24
168,Maarianhamina,60.0973,19.9348,32.0,93,90,9.22,AX,2021-01-16 03:10:28
169,Punta Alta,-38.8759,-62.0736,72.86,49,0,9.75,AR,2021-01-16 03:10:28
170,Nome,64.5011,-165.4064,21.2,58,90,13.8,US,2021-01-16 03:10:28
171,Nyurba,63.2842,118.3319,-34.89,82,100,4.92,RU,2021-01-16 03:10:28
172,Fare,-16.7,-151.0167,81.68,74,0,12.62,PF,2021-01-16 03:10:28
173,Port Augusta,-32.5,137.7667,73.99,45,41,14.97,AU,2021-01-16 03:10:28
174,Vao,-22.6667,167.4833,80.13,82,100,7.0,NC,2021-01-16 03:10:28
175,Axim,4.8699,-2.2405,78.4,85,22,6.49,GH,2021-01-16 03:10:28
176,Beloha,-25.1667,45.05,77.02,83,41,3.22,MG,2021-01-16 03:10:29
177,Valparaiso,-33.0393,-71.6273,55.4,82,0,4.61,CL,2021-01-16 03:09:16
178,Batemans Bay,-35.7167,150.1833,77.0,33,0,5.01,AU,2021-01-16 03:10:29
179,Taksimo,56.3444,114.8794,-13.14,80,100,1.92,RU,2021-01-16 03:10:29
180,Port Keats,-14.25,129.55,92.44,58,54,6.17,AU,2021-01-16 03:10:29
181,Nanortalik,60.1432,-45.2371,23.79,94,87,4.34,GL,2021-01-16 03:10:29
182,Luwuk,-0.9516,122.7875,82.99,72,100,1.3,ID,2021-01-16 03:10:29
183,Rudnichnyy,59.617,52.4703,-2.24,93,98,5.35,RU,2021-01-16 03:10:30
184,Grand-Lahou,5.1367,-5.0242,78.28,85,9,8.43,CI,2021-01-16 03:10:30
185,Cherskiy,68.75,161.3,-20.96,87,100,4.18,RU,2021-01-16 03:10:30
186,Natal,-5.795,-35.2094,80.6,78,20,11.5,BR,2021-01-16 03:10:30
187,Gao,16.6362,1.637,69.01,23,10,9.82,ML,2021-01-16 03:10:30
188,Japura,-0.3167,102.35,84.76,69,92,2.62,ID,2021-01-16 03:10:31
189,Mahibadhoo,3.7833,72.9667,80.98,74,18,10.25,MV,2021-01-16 03:10:31
190,Kalmunai,7.4167,81.8167,79.93,80,39,6.69,LK,2021-01-16 03:10:31
191,College,64.8569,-147.8028,10.4,78,75,3.4,US,2021-01-16 03:10:31
192,Praskoveya,44.7444,44.2031,31.19,94,62,5.41,RU,2021-01-16 03:10:31
193,Dzhebariki-Khaya,62.2167,135.8,-40.31,79,73,0.27,RU,2021-01-16 03:10:31
194,Ancud,-41.8697,-73.8203,55.0,93,90,2.3,CL,2021-01-16 03:10:31
195,Vestmannaeyjar,63.4427,-20.2734,41.4,84,100,21.77,IS,2021-01-16 03:10:31
196,West Wendover,40.7391,-114.0733,30.2,64,1,4.61,US,2021-01-16 03:10:10
197,Kushiro,42.975,144.3747,37.4,87,75,14.97,JP,2021-01-16 03:08:05
198,Pedernales,18.0384,-71.744,76.39,65,23,2.13,DO,2021-01-16 03:10:32
199,Prince Rupert,54.3161,-130.3201,46.4,87,90,10.36,CA,2021-01-16 03:10:32
200,Krasnyy Chikoy,50.3643,108.7512,-1.08,87,100,7.76,RU,2021-01-16 03:10:32
201,Grand Forks,47.9417,-97.4337,17.6,93,90,13.8,US,2021-01-16 03:06:03
202,Marawi,7.9986,124.2928,82.0,84,78,5.99,PH,2021-01-16 03:10:32
203,Gladstone,-23.85,151.25,86.0,51,2,13.8,AU,2021-01-16 03:10:32
204,Guerrero Negro,27.9769,-114.0611,66.31,31,0,7.45,MX,2021-01-16 03:10:32
205,Igarka,67.4667,86.5833,-33.65,79,14,8.05,RU,2021-01-16 03:10:32
206,Cockburn Town,21.4612,-71.1419,77.0,78,40,6.91,TC,2021-01-16 03:10:32
207,Karasjok,69.4719,25.5112,33.8,80,90,9.22,NO,2021-01-16 03:10:32
208,Ust-Tsilma,65.441,52.1498,-9.92,90,78,3.09,RU,2021-01-16 03:10:33
209,Ulaangom,49.9811,92.0667,-14.8,87,94,0.18,MN,2021-01-16 03:10:33
210,Kruisfontein,-34.0033,24.7314,66.0,85,93,1.01,ZA,2021-01-16 03:10:33
211,Blagoyevo,63.3667,47.9167,-14.82,88,68,4.54,RU,2021-01-16 03:10:33
212,Puerto Leguizamo,-0.1934,-74.7819,75.87,79,100,1.63,CO,2021-01-16 03:10:33
213,Waipawa,-41.4122,175.5153,73.4,64,20,18.41,NZ,2021-01-16 03:10:33
214,Rubio,7.7013,-72.3557,67.35,85,98,1.57,VE,2021-01-16 03:10:33
215,Okhotsk,59.3833,143.3,-13.43,88,100,10.6,RU,2021-01-16 03:10:33
216,Buin,-33.7333,-70.75,68.0,42,20,6.91,CL,2021-01-16 03:10:33
217,Cidreira,-30.1811,-50.2056,76.68,83,53,21.99,BR,2021-01-16 03:10:34
218,Portland,45.5234,-122.6762,46.99,93,40,3.44,US,2021-01-16 03:06:08
219,Vila Do Maio,15.1333,-23.2167,69.8,73,0,19.57,CV,2021-01-16 03:10:34
220,Darhan,49.4867,105.9228,-5.48,82,100,8.75,MN,2021-01-16 03:10:34
221,Gyenesdias,46.7706,17.2866,28.4,93,90,11.5,HU,2021-01-16 03:10:34
222,Mandalgovi,45.7625,106.2708,-3.14,78,0,14.38,MN,2021-01-16 03:08:09
223,Laizhou,37.1717,119.9214,27.72,78,0,11.61,CN,2021-01-16 03:10:34
224,Nioro,13.35,-15.75,72.84,19,100,8.08,GM,2021-01-16 03:10:35
225,Sur,22.5667,59.5289,64.13,66,0,3.42,OM,2021-01-16 03:10:35
226,Korla,41.7597,86.1469,19.29,79,0,4.23,CN,2021-01-16 03:10:35
227,Sisimiut,66.9395,-53.6735,11.1,85,6,7.25,GL,2021-01-16 03:10:35
228,Yumen,40.2833,97.2,11.53,73,0,4.79,CN,2021-01-16 03:10:35
229,Farafangana,-22.8167,47.8333,78.87,88,1,2.77,MG,2021-01-16 03:10:35
230,Jalu,29.0331,21.5482,48.33,67,0,5.39,LY,2021-01-16 03:10:35
231,Tobermory,45.2501,-81.6665,35.6,93,100,13.8,CA,2021-01-16 03:10:35
232,Katsuura,35.1333,140.3,63.0,48,0,8.99,JP,2021-01-16 03:10:35
233,Aguimes,27.9054,-15.4461,62.6,59,75,21.85,ES,2021-01-16 03:10:36
234,Klaksvik,62.2266,-6.589,41.0,87,75,31.07,FO,2021-01-16 03:10:36
235,Pak Phanang,8.3511,100.202,84.2,79,75,9.98,TH,2021-01-16 03:10:36
236,Port Moresby,-9.4431,147.1797,86.0,70,40,11.5,PG,2021-01-16 03:10:36
237,Asau,46.4333,26.4,21.2,79,75,2.3,RO,2021-01-16 03:10:36
238,Makakilo City,21.3469,-158.0858,82.4,61,20,4.61,US,2021-01-16 03:10:36
239,Gat,31.61,34.7642,50.0,87,0,3.44,IL,2021-01-16 03:10:36
240,Bathsheba,13.2167,-59.5167,77.0,73,40,18.41,BB,2021-01-16 03:10:36
241,East London,-33.0153,27.9116,68.85,78,48,20.24,ZA,2021-01-16 03:10:37
242,Manono,-7.3,27.4167,65.26,96,96,2.77,CD,2021-01-16 03:10:37
243,Aranos,-24.1333,19.1167,71.65,75,97,8.28,NA,2021-01-16 03:10:37
244,Berlevag,70.8578,29.0864,36.63,81,100,24.18,NO,2021-01-16 03:10:37
245,Yulara,-25.2406,130.9889,71.6,56,75,13.8,AU,2021-01-16 03:10:37
246,Maragogi,-9.0122,-35.2225,77.38,77,100,7.0,BR,2021-01-16 03:10:37
247,Guangshui,31.6199,113.9978,41.52,63,100,16.62,CN,2021-01-16 03:10:38
248,Kashi,39.4547,75.9797,21.2,68,1,6.71,CN,2021-01-16 03:10:38
249,Norman Wells,65.282,-126.8329,1.4,78,90,6.91,CA,2021-01-16 03:10:38
250,Vakhrushev,48.9833,142.9667,1.08,91,100,9.22,RU,2021-01-16 03:10:38
251,Vardo,70.3705,31.1107,34.72,92,100,14.0,NO,2021-01-16 03:10:38
252,Coyoles Central,15.4,-86.6667,75.2,94,40,1.03,HN,2021-01-16 03:10:38
253,Novovasylivka,46.8315,35.7536,19.22,88,67,11.16,UA,2021-01-16 03:10:38
254,Honningsvag,70.9821,25.9704,37.36,80,100,26.19,NO,2021-01-16 03:10:39
255,Yar-Sale,66.8333,70.8333,-1.34,93,100,5.61,RU,2021-01-16 03:10:39
256,Kadoshkino,54.0257,44.4191,10.58,97,100,5.97,RU,2021-01-16 03:10:39
257,Neka,36.6508,53.299,49.89,55,0,3.74,IR,2021-01-16 03:10:39
258,Serik,36.9169,31.0989,48.2,71,75,9.22,TR,2021-01-16 03:10:39
259,Verkhnyaya Inta,65.9811,60.3094,-7.15,91,100,2.3,RU,2021-01-16 03:10:39
260,Sidi Ali,36.0998,0.4206,51.49,87,59,12.1,DZ,2021-01-16 03:10:39
261,Belmonte,-15.8631,-38.8828,73.4,94,75,3.44,BR,2021-01-16 03:10:39
262,Teeli,51.0333,90.2333,-7.98,81,100,0.78,RU,2021-01-16 03:10:40
263,Chiang Klang,19.2938,100.8617,60.8,82,0,1.14,TH,2021-01-16 03:10:40
264,Thompson,55.7435,-97.8558,5.0,85,75,3.44,CA,2021-01-16 03:10:40
265,Tabou,4.423,-7.3528,77.31,88,45,7.36,CI,2021-01-16 03:10:40
266,Torbay,47.6666,-52.7314,30.0,100,90,29.93,CA,2021-01-16 03:10:41
267,Krasnoselkup,65.7,82.4667,-8.81,90,100,16.62,RU,2021-01-16 03:10:41
268,Praia,14.9215,-23.5087,69.8,73,0,19.57,CV,2021-01-16 03:10:41
269,Saint-Augustin,51.226,-58.6502,21.18,94,0,7.38,CA,2021-01-16 03:10:41
270,Veraval,20.9,70.3667,68.4,39,0,8.57,IN,2021-01-16 03:10:41
271,Simao,22.7886,100.9748,62.82,64,1,2.91,CN,2021-01-16 03:10:41
272,Abu Dhabi,24.4667,54.3667,55.4,94,0,2.3,AE,2021-01-16 03:10:42
273,Mount Isa,-20.7333,139.5,98.6,14,2,13.8,AU,2021-01-16 03:10:42
274,Serta,39.8085,-8.0988,37.0,92,0,2.62,PT,2021-01-16 03:10:42
275,Makinsk,52.6292,70.4169,10.44,89,100,12.39,KZ,2021-01-16 03:10:42
276,Sola,-13.8833,167.55,83.64,77,98,16.89,VU,2021-01-16 03:10:42
277,Te Anau,-45.4167,167.7167,75.04,29,38,8.25,NZ,2021-01-16 03:10:42
278,Najran,17.4924,44.1277,51.8,50,0,0.02,SA,2021-01-16 03:10:42
279,Buraydah,26.326,43.975,48.2,93,0,6.49,SA,2021-01-16 03:05:47
280,Khandyga,62.6667,135.6,-42.34,79,64,0.6,RU,2021-01-16 03:10:42
281,Puri,19.8,85.85,64.4,88,75,3.83,IN,2021-01-16 03:10:42
282,Port Alfred,-33.5906,26.891,66.0,87,25,3.0,ZA,2021-01-16 03:10:42
283,Aykhal,66.0,111.5,-46.28,75,97,7.18,RU,2021-01-16 03:10:43
284,Moindou,-21.6924,165.677,86.0,74,75,8.05,NC,2021-01-16 03:10:43
285,Lavrentiya,65.5833,-171.0,-6.07,87,100,10.38,RU,2021-01-16 03:10:43
286,Escanaba,45.7453,-87.0646,33.8,93,90,8.05,US,2021-01-16 03:06:58
287,General Pico,-35.6566,-63.7568,69.49,78,35,10.27,AR,2021-01-16 03:10:43
288,Agadir,30.4202,-9.5982,42.8,100,0,5.75,MA,2021-01-16 03:10:43
289,Nouadhibou,20.931,-17.0347,60.8,51,0,18.41,MR,2021-01-16 03:10:43
290,Hrymayliv,49.3321,26.0111,15.21,96,100,11.77,UA,2021-01-16 03:10:43
291,Vanino,49.0869,140.2543,3.72,81,100,5.66,RU,2021-01-16 03:10:43
292,Vila Velha,-20.3297,-40.2925,75.0,94,20,3.44,BR,2021-01-16 03:10:43
293,Cleveland,41.4995,-81.6954,34.0,93,75,9.22,US,2021-01-16 03:06:16
294,Kualakapuas,-3.0091,114.3876,80.6,78,40,3.44,ID,2021-01-16 03:10:44
295,Atar,20.5169,-13.0499,61.43,27,100,13.31,MR,2021-01-16 03:10:44
296,Ginda,30.6945,78.4932,50.77,35,0,5.82,IN,2021-01-16 03:10:44
297,Nishihara,26.1842,127.7558,73.4,56,75,10.36,JP,2021-01-16 03:10:44
298,Mirai,-21.1953,-42.6142,69.08,94,99,1.21,BR,2021-01-16 03:10:44
299,Severo-Kurilsk,50.6789,156.125,29.03,93,39,15.32,RU,2021-01-16 03:10:44
300,Mitsamiouli,-11.3847,43.2844,80.87,77,99,8.63,KM,2021-01-16 03:10:44
301,Sarkand,45.41,79.9186,35.02,62,0,6.82,KZ,2021-01-16 03:10:44
302,San Carlos De Bariloche,-41.1456,-71.3082,46.4,61,40,10.36,AR,2021-01-16 03:10:45
303,Jacqueville,5.2052,-4.4146,78.8,100,20,4.61,CI,2021-01-16 03:10:45
304,Nanakuli,21.3906,-158.1547,82.0,61,20,4.61,US,2021-01-16 03:10:45
305,Deder,9.3167,41.45,51.4,67,74,3.56,ET,2021-01-16 03:10:45
306,Koindu,8.4386,-10.3253,64.9,93,16,1.66,GN,2021-01-16 03:10:45
307,Kavaratti,10.5669,72.642,82.0,75,92,7.99,IN,2021-01-16 03:10:45
308,Nantucket,41.2835,-70.0995,41.0,81,1,9.22,US,2021-01-16 03:10:36
309,Pisco,-13.7,-76.2167,69.8,83,0,14.97,PE,2021-01-16 03:09:15
310,Antalaha,-14.9003,50.2788,76.91,86,34,4.74,MG,2021-01-16 03:10:46
311,Sayat,38.7839,63.8803,46.4,46,0,6.91,TM,2021-01-16 03:10:46
312,Oshawa,43.9001,-78.8496,37.4,100,90,12.66,CA,2021-01-16 03:08:48
313,La Ronge,55.1001,-105.2842,19.4,86,37,5.75,CA,2021-01-16 03:10:46
314,Touros,-5.1989,-35.4608,77.0,88,20,4.61,BR,2021-01-16 03:10:43
315,Sibu,2.3,111.8167,78.8,83,40,2.3,MY,2021-01-16 03:10:46
316,Caucaia,-3.7361,-38.6531,81.0,78,40,11.5,BR,2021-01-16 03:10:46
317,Padang,-0.9492,100.3543,85.84,48,63,1.41,ID,2021-01-16 03:10:35
318,Qobustan,40.0824,49.412,37.4,100,75,2.3,AZ,2021-01-16 03:10:47
319,Tairua,-37.0167,175.85,75.06,52,0,7.25,NZ,2021-01-16 03:10:47
320,Ormara,25.2088,64.6357,67.82,35,0,2.86,PK,2021-01-16 03:10:47
321,Lebane,42.9239,21.7375,30.2,74,90,6.91,RS,2021-01-16 03:10:47
322,Soderhamn,61.3037,17.0592,16.0,94,37,5.68,SE,2021-01-16 03:10:47
323,Bilma,18.6853,12.9164,59.88,33,11,3.09,NE,2021-01-16 03:10:47
324,Sobolevo,54.4299,31.8996,-9.8,90,63,5.35,RU,2021-01-16 03:10:47
325,Winslow,35.0242,-110.6974,32.0,25,1,5.75,US,2021-01-16 03:07:04
326,Henties Bay,-22.116,14.2845,71.01,80,61,4.47,NA,2021-01-16 03:10:47
327,Mathbaria,22.2876,89.9593,69.71,40,0,4.36,BD,2021-01-16 03:10:47
328,Cabo San Lucas,22.8909,-109.9124,68.0,24,1,6.91,MX,2021-01-16 03:10:48
329,Avera,33.194,-82.5271,42.8,56,1,4.61,US,2021-01-16 03:10:48
330,Dali,25.7,100.1833,52.56,49,100,2.8,CN,2021-01-16 03:10:48
331,Shache,38.4167,77.2406,19.38,88,0,6.85,CN,2021-01-16 03:10:48
332,Bonito,-21.1211,-56.4819,72.77,96,95,3.85,BR,2021-01-16 03:10:48
333,Verkh-Usugli,52.7,115.1667,-6.77,72,13,5.41,RU,2021-01-16 03:10:48
334,Asfi,32.2994,-9.2372,51.58,81,0,11.61,MA,2021-01-16 03:10:48
335,Saint-Pierre,-21.3393,55.4781,80.6,69,75,4.61,RE,2021-01-16 03:10:48
336,Ugoofaaru,5.6667,73.0,81.01,75,50,12.3,MV,2021-01-16 03:10:48
337,Puerto Escondido,15.85,-97.0667,77.0,78,20,2.37,MX,2021-01-16 03:08:42
338,Tuatapere,-46.1333,167.6833,73.0,63,4,8.99,NZ,2021-01-16 03:10:49
339,Tazovskiy,67.4667,78.7,-15.54,89,100,16.8,RU,2021-01-16 03:10:49
340,Sistranda,63.7256,8.834,28.4,86,75,13.8,NO,2021-01-16 03:10:49
341,Broken Hill,-31.95,141.4333,68.0,32,62,13.8,AU,2021-01-16 03:10:49
342,Port Blair,11.6667,92.75,80.2,69,7,12.21,IN,2021-01-16 03:10:49
343,Broome,42.2506,-75.833,39.99,93,90,10.36,US,2021-01-16 03:10:49
344,Sept-Iles,50.2001,-66.3821,26.6,93,0,2.3,CA,2021-01-16 03:10:49
345,Toora-Khem,52.4675,96.11,-8.77,85,100,1.12,RU,2021-01-16 03:10:50
346,Barra Do Corda,-5.5,-45.25,74.57,93,99,2.37,BR,2021-01-16 03:10:50
347,Vossevangen,60.623,6.4229,24.01,85,0,1.99,NO,2021-01-16 03:10:50
348,Alenquer,-1.9417,-54.7383,73.4,94,0,3.87,BR,2021-01-16 03:10:50
349,Poso,-1.3959,120.7524,85.64,65,100,3.83,ID,2021-01-16 03:10:50
350,Waitara,-38.925,174.25,66.0,73,30,7.0,NZ,2021-01-16 03:10:50
351,Komsomolskiy,40.4272,71.7189,30.2,69,0,6.91,UZ,2021-01-16 03:10:50
352,Comodoro Rivadavia,-45.8667,-67.5,57.2,82,40,9.22,AR,2021-01-16 03:06:58
353,Coquimbo,-29.9533,-71.3436,59.0,88,0,2.3,CL,2021-01-16 03:10:50
354,Manzhouli,49.6,117.4333,1.17,85,23,21.63,CN,2021-01-16 03:10:51
355,Vidim,56.4088,103.1106,-12.39,88,100,6.78,RU,2021-01-16 03:10:51
356,Upington,-28.4478,21.2561,64.4,72,0,8.05,ZA,2021-01-16 03:10:51
357,Sabzevar,36.2126,57.6819,42.15,49,0,5.32,IR,2021-01-16 03:07:13
358,Cap Malheureux,-19.9842,57.6142,82.99,79,6,3.0,MU,2021-01-16 03:10:51
359,Novobelokatay,55.7062,58.9549,11.97,94,100,7.09,RU,2021-01-16 03:10:51
360,Kondinskoye,59.6481,67.41,5.16,95,100,3.85,RU,2021-01-16 03:10:51
361,Tucurui,-3.7661,-49.6725,73.51,94,97,2.86,BR,2021-01-16 03:10:51
362,Solano,38.2333,-121.9511,55.99,76,20,1.95,US,2021-01-16 03:10:51
363,Oranjemund,-28.55,16.4333,61.57,89,0,2.15,NA,2021-01-16 03:10:52
364,Gloversville,43.0528,-74.3438,36.0,100,90,5.75,US,2021-01-16 03:10:52
365,Progreso,21.2833,-89.6667,72.0,83,90,4.61,MX,2021-01-16 03:10:52
366,Chapayeve,49.3662,35.8749,6.8,85,75,11.18,UA,2021-01-16 03:10:52
367,Esperance,-33.8667,121.9,71.6,35,44,19.57,AU,2021-01-16 03:10:52
368,Russell,32.3502,-85.1999,46.4,41,1,6.17,US,2021-01-16 03:10:52
369,Biloela,-24.4167,150.5,92.89,35,0,3.42,AU,2021-01-16 03:10:52
370,Otradnoye,59.7775,30.8181,1.0,78,0,2.24,RU,2021-01-16 03:10:52
371,Eirunepe,-6.6603,-69.8736,74.17,94,89,1.77,BR,2021-01-16 03:10:52
372,Tevaitoa,-16.7833,-151.5,81.7,73,19,11.88,PF,2021-01-16 03:10:53
373,La Victoria,10.2184,-67.3302,78.8,83,20,3.8,VE,2021-01-16 03:10:53
374,Mantua,45.1667,10.7833,32.0,83,88,1.01,IT,2021-01-16 03:10:53
375,Sloboda,51.1421,40.3021,12.9,97,99,2.98,RU,2021-01-16 03:10:53
376,Treinta Y Tres,-33.2333,-54.3833,72.79,87,100,14.65,UY,2021-01-16 03:10:53
377,Laguna,38.421,-121.4238,57.2,76,1,3.44,US,2021-01-16 03:10:53
378,Hambantota,6.1241,81.1185,73.4,100,75,2.3,LK,2021-01-16 03:10:53
379,Lewiston,44.1003,-70.2148,30.0,80,90,2.17,US,2021-01-16 03:10:54
380,Tezu,27.9167,96.1667,70.5,36,29,2.53,IN,2021-01-16 03:10:54
381,Prachuap Khiri Khan,12.2167,99.75,77.0,65,0,3.31,TH,2021-01-16 03:10:29
382,Aquiraz,-3.9014,-38.3911,80.6,78,40,11.5,BR,2021-01-16 03:10:54
383,Lagoa,39.05,-27.9833,60.04,88,7,9.69,PT,2021-01-16 03:10:54
384,Fortuna,40.5982,-124.1573,53.6,100,20,5.75,US,2021-01-16 03:10:54
385,Mandera,3.9366,41.867,74.48,70,27,6.35,KE,2021-01-16 03:10:54
386,Guna,24.65,77.3167,58.3,34,0,5.64,IN,2021-01-16 03:10:54
387,Erzin,36.9559,36.2,50.0,100,75,10.36,TR,2021-01-16 03:10:54
388,Bria,6.5423,21.9863,63.32,33,35,2.89,CF,2021-01-16 03:10:54
389,Vanimo,-2.6741,141.3028,83.57,76,86,5.73,PG,2021-01-16 03:10:54
390,Tabuk,17.4189,121.4443,74.17,74,85,7.92,PH,2021-01-16 03:10:55
391,Nakamura,32.9833,132.9333,62.56,56,98,9.37,JP,2021-01-16 03:10:55
392,Ilulissat,69.2167,-51.1,14.0,62,90,13.8,GL,2021-01-16 03:10:55
393,Los Llanos De Aridane,28.6585,-17.9182,62.6,55,90,9.22,ES,2021-01-16 03:10:55
394,Antofagasta,-23.65,-70.4,64.4,77,90,5.75,CL,2021-01-16 03:08:12
395,Chillicothe,39.3331,-82.9824,32.0,93,1,3.44,US,2021-01-16 03:09:50
396,Bondo,3.8146,23.6866,68.81,64,48,2.24,CD,2021-01-16 03:10:55
397,Waingapu,-9.6567,120.2641,81.14,78,100,6.87,ID,2021-01-16 03:07:25
398,Ndioum,16.5129,-14.6471,71.58,20,100,11.52,SN,2021-01-16 03:10:55
399,Whitehorse,60.7161,-135.0538,33.8,75,75,18.41,CA,2021-01-16 03:10:56
400,Cochrane,51.1834,-114.4687,37.4,51,1,18.41,CA,2021-01-16 03:10:56
401,Suntar,62.1444,117.6319,-33.03,83,100,3.89,RU,2021-01-16 03:10:56
402,Manado,1.487,124.8455,78.8,89,40,10.36,ID,2021-01-16 03:10:56
403,Inverell,-29.7833,151.1167,84.99,24,72,4.0,AU,2021-01-16 03:10:56
404,Gizo,-8.103,156.8419,85.55,70,100,13.8,SB,2021-01-16 03:10:56
405,Ransang,8.9603,117.5828,84.04,71,56,2.98,PH,2021-01-16 03:10:56
406,South Venice,27.0531,-82.4243,62.6,94,90,12.66,US,2021-01-16 03:10:56
407,Actopan,20.2667,-98.9333,53.22,84,100,4.88,MX,2021-01-16 03:10:56
408,Debre Tabor,11.85,38.0167,48.38,55,0,4.45,ET,2021-01-16 03:10:57
409,Boueni,-12.9025,45.0761,77.0,88,0,4.61,YT,2021-01-16 03:10:57
410,Nadym,65.5333,72.5167,0.41,93,100,5.03,RU,2021-01-16 03:10:57
411,Nabire,-3.3667,135.4833,81.7,72,99,2.66,ID,2021-01-16 03:10:57
412,Batagay-Alyta,67.8006,130.4114,-24.47,85,100,2.06,RU,2021-01-16 03:10:57
413,Nurota,40.5614,65.6886,42.8,52,85,4.61,UZ,2021-01-16 03:10:57
414,Palana,59.1167,159.9667,-11.06,90,16,5.39,RU,2021-01-16 03:10:57
415,Asyut,27.181,31.1837,48.2,81,0,4.05,EG,2021-01-16 03:10:57
416,Menongue,-14.6585,17.691,57.4,79,28,4.05,AO,2021-01-16 03:10:57
417,Konya,38.1667,32.5,30.2,93,75,2.3,TR,2021-01-16 03:07:20
418,Yershov,51.3513,48.2766,15.03,96,99,17.31,RU,2021-01-16 03:10:58
419,Lakatoro,-16.0999,167.4164,85.98,69,87,5.01,VU,2021-01-16 03:10:58
420,Sao Sebastiao,-23.76,-45.4097,74.75,84,86,4.92,BR,2021-01-16 03:06:16
421,Iquique,-20.2208,-70.1431,71.6,56,75,6.91,CL,2021-01-16 03:06:01
422,Abhar,36.1468,49.218,33.21,91,9,5.77,IR,2021-01-16 03:07:13
423,Miri,4.4148,114.0089,75.2,100,40,6.91,MY,2021-01-16 03:07:50
424,Kupang,-10.1667,123.5833,87.8,70,75,4.61,ID,2021-01-16 03:10:58
425,Turbat,26.0023,63.044,59.41,23,0,7.2,PK,2021-01-16 03:10:58
426,Saint George,37.1041,-113.5841,50.0,25,1,3.44,US,2021-01-16 03:10:58
427,Fasa,28.9383,53.6482,35.6,44,0,4.61,IR,2021-01-16 03:10:59
428,Chifeng,42.2683,118.9636,1.4,82,0,10.2,CN,2021-01-16 03:10:59
429,Clyde River,70.4692,-68.5914,1.4,85,90,4.61,CA,2021-01-16 03:10:59
430,Canakkale,40.0833,26.8333,30.2,86,0,5.75,TR,2021-01-16 03:10:59
431,Egvekinot,66.3167,-179.1667,-11.38,88,100,16.67,RU,2021-01-16 03:10:59
432,Koksovyy,48.1967,40.5989,26.13,98,100,11.88,RU,2021-01-16 03:10:59
433,Pamplona,42.8169,-1.6432,44.01,75,75,11.5,ES,2021-01-16 03:10:59
434,Cabedelo,-6.9811,-34.8339,75.2,88,40,3.44,BR,2021-01-16 03:10:59
435,Araouane,18.9048,-3.5265,58.68,28,82,14.61,ML,2021-01-16 03:10:59
436,Talnakh,69.4865,88.3972,-33.93,73,0,7.0,RU,2021-01-16 03:10:59
437,Manuk Mangkaw,4.8,119.85,81.43,80,97,11.45,PH,2021-01-16 03:11:00
438,Carutapera,-1.195,-46.02,77.63,82,69,6.49,BR,2021-01-16 03:11:00
439,Dargaville,-35.9333,173.8833,73.54,53,48,7.7,NZ,2021-01-16 03:11:00
440,Arlit,18.7369,7.3853,63.5,28,13,1.32,NE,2021-01-16 03:09:38
441,Khovu-Aksy,51.1333,93.6,-8.05,83,100,4.97,RU,2021-01-16 03:11:00
442,Ust-Ordynskiy,52.805,104.7508,10.4,85,90,8.95,RU,2021-01-16 03:11:00
443,Monforte De Lemos,42.5216,-7.5142,33.01,82,100,1.32,ES,2021-01-16 03:11:00
444,Alice Springs,-23.7,133.8833,84.2,17,26,19.57,AU,2021-01-16 03:11:00
445,Jacareacanga,-6.2222,-57.7528,72.86,94,91,0.45,BR,2021-01-16 03:11:00
446,Chapais,49.7834,-74.8492,26.6,80,90,11.5,CA,2021-01-16 03:11:00
447,Resplendor,-19.3256,-41.2553,70.05,91,65,0.49,BR,2021-01-16 03:11:01
448,Hualmay,-11.0964,-77.6139,70.16,84,99,3.53,PE,2021-01-16 03:11:01
449,Sinop,41.7711,34.8709,27.91,92,5,2.42,TR,2021-01-16 03:11:01
450,Zhoucheng,35.9122,116.3117,34.45,69,87,1.52,CN,2021-01-16 03:11:01
451,Key Largo,25.0865,-80.4473,73.0,86,88,3.0,US,2021-01-16 03:11:01
452,Petrovac,44.3769,21.4192,26.01,83,98,1.01,RS,2021-01-16 03:11:02
453,Vicente Guerrero,19.1194,-98.1708,59.0,55,75,8.05,MX,2021-01-16 03:11:02
454,Salug,8.1147,122.7833,85.26,66,64,5.06,PH,2021-01-16 03:11:02
455,Seoul,37.5683,126.9778,28.4,46,0,10.36,KR,2021-01-16 03:08:15
456,Samarai,-10.6167,150.6667,86.92,69,88,13.58,PG,2021-01-16 03:11:02
457,Oktyabrskoye,43.0645,44.7417,32.0,93,82,4.47,RU,2021-01-16 03:11:02
458,Foumban,5.7291,10.9001,59.81,35,49,2.91,CM,2021-01-16 03:11:02
459,Koulamoutou,-1.1303,12.4736,70.59,92,86,1.77,GA,2021-01-16 03:11:03
460,Hamilton,39.1834,-84.5333,37.0,80,90,4.61,US,2021-01-16 03:11:03
461,Pimenta Bueno,-11.6725,-61.1936,74.14,92,100,3.2,BR,2021-01-16 03:11:03
462,Naryan-Mar,67.6713,53.087,-17.3,83,0,3.65,RU,2021-01-16 03:11:03
463,Bandarbeyla,9.4942,50.8122,72.82,81,19,13.4,SO,2021-01-16 03:11:03
464,Potosi,-19.5836,-65.7531,50.94,71,97,4.0,BO,2021-01-16 03:11:03
465,Chaman,30.9236,66.4512,42.13,43,14,1.72,PK,2021-01-16 03:11:03
466,The Valley,18.217,-63.0578,77.0,78,20,6.91,AI,2021-01-16 03:08:30
467,Patawag,8.1064,122.6208,84.04,70,56,7.25,PH,2021-01-16 03:11:04
468,Concordia,-31.393,-58.0209,70.0,100,100,3.0,AR,2021-01-16 03:11:04
469,Kutum,14.2,24.6667,47.03,51,0,3.76,SD,2021-01-16 03:11:04
470,Nowa Sol,51.8033,15.717,27.0,84,100,4.0,PL,2021-01-16 03:10:34
471,Kindu,-2.95,25.95,68.11,88,100,1.99,CD,2021-01-16 03:11:04
472,Namatanai,-3.6667,152.4333,83.84,72,100,7.31,PG,2021-01-16 03:11:04
473,Khurba,50.4072,136.8819,-5.85,84,4,4.63,RU,2021-01-16 03:11:04
474,Baykit,61.67,96.37,-32.33,76,3,2.01,RU,2021-01-16 03:11:04
475,Labuhan,-6.8844,112.2051,83.08,74,97,6.91,ID,2021-01-16 03:11:05
476,Sri Aman,1.2376,111.4621,78.8,89,20,2.3,MY,2021-01-16 03:11:05
477,Coahuayana,18.7333,-103.6833,71.01,59,100,2.86,MX,2021-01-16 03:11:05
478,Kenai,60.5544,-151.2583,28.0,80,1,3.44,US,2021-01-16 03:11:05
479,Kiruna,67.8557,20.2251,14.0,92,0,3.44,SE,2021-01-16 03:11:05
480,Elizabeth City,36.2946,-76.2511,50.0,87,40,3.44,US,2021-01-16 03:06:18
481,San Vicente,-26.6167,-54.1333,69.94,89,81,4.74,AR,2021-01-16 03:11:05
482,Katherine,-14.4667,132.2667,95.0,41,100,12.66,AU,2021-01-16 03:11:05
483,Skjervoy,70.0311,20.9714,39.09,83,100,27.13,NO,2021-01-16 03:11:05
484,Haines Junction,60.7522,-137.5108,26.6,93,60,2.84,CA,2021-01-16 03:11:06
485,Gorontalo,0.5412,123.0595,85.12,66,100,2.71,ID,2021-01-16 03:11:06
486,Prado,-17.3411,-39.2208,76.21,89,99,8.95,BR,2021-01-16 03:11:06
487,Vicuna,-30.0319,-70.7081,59.0,88,0,2.3,CL,2021-01-16 03:11:06
488,Santa Maria,-29.6842,-53.8069,78.8,83,20,9.22,BR,2021-01-16 03:11:06
489,Kawerau,-38.1,176.7,80.01,53,12,3.0,NZ,2021-01-16 03:11:06
490,Alofi,-19.0595,-169.9187,87.8,62,75,9.22,NU,2021-01-16 03:11:06
491,Hervey Bay,-25.2986,152.8535,87.01,54,40,14.97,AU,2021-01-16 03:11:06
492,Urumqi,43.801,87.6005,-11.2,84,0,4.47,CN,2021-01-16 03:11:06
493,Olafsvik,64.8945,-23.7142,35.1,94,100,14.2,IS,2021-01-16 03:11:07
494,Honiara,-9.4333,159.95,83.1,75,100,4.56,SB,2021-01-16 03:11:07
495,Vestmanna,62.1564,-7.1664,41.0,87,75,31.07,FO,2021-01-16 03:11:07
496,Mount Gambier,-37.8333,140.7667,62.6,63,75,18.41,AU,2021-01-16 03:11:07
497,Nieuw Amsterdam,5.8833,-55.0833,77.0,93,99,11.12,SR,2021-01-16 03:11:07
498,Thunder Bay,48.4001,-89.3168,30.2,80,90,3.44,CA,2021-01-16 03:10:55
499,Oriximina,-1.7656,-55.8661,78.62,71,71,1.66,BR,2021-01-16 03:08:43
500,Lindas,60.7381,5.16,28.0,71,0,5.99,NO,2021-01-16 03:11:07
501,Ambilobe,-13.2,49.05,74.97,92,54,1.86,MG,2021-01-16 03:11:08
502,Kusti,13.1629,32.6635,64.13,28,0,12.62,SD,2021-01-16 03:11:08
503,Matadi,-5.8167,13.45,73.18,87,98,2.33,CD,2021-01-16 03:11:08
504,Oussouye,12.485,-16.5469,69.8,56,0,4.61,SN,2021-01-16 03:11:08
505,Sibolga,1.7427,98.7792,85.24,57,18,2.84,ID,2021-01-16 03:11:08
506,Carauari,-4.8828,-66.8958,74.55,96,100,1.43,BR,2021-01-16 03:11:08
507,Vangaindrano,-23.35,47.6,77.34,90,5,2.19,MG,2021-01-16 03:06:10
508,Stromness,58.965,-3.296,41.0,81,90,35.68,GB,2021-01-16 03:11:08
509,Lokosovo,61.1333,74.8167,5.16,93,100,9.82,RU,2021-01-16 03:11:08
510,Orlik,52.5178,99.825,-7.87,81,100,3.33,RU,2021-01-16 03:11:09
511,Kanniyakumari,8.0833,77.5667,79.29,80,57,19.64,IN,2021-01-16 03:11:09
512,Sorland,67.667,12.6934,39.13,80,100,13.65,NO,2021-01-16 03:11:09
513,Rio Gallegos,-51.6226,-69.2181,51.8,82,40,5.75,AR,2021-01-16 03:11:09
514,Aurora,39.7294,-104.8319,34.0,37,1,10.36,US,2021-01-16 03:07:54
515,Ahipara,-35.1667,173.1667,72.41,50,10,6.11,NZ,2021-01-16 03:11:09
516,Kirkland Lake,48.1446,-80.0377,30.2,86,100,5.46,CA,2021-01-16 03:11:09
517,Kichera,55.9375,110.0997,-10.17,80,100,4.76,RU,2021-01-16 03:11:09
518,Erdaojiang,41.7764,126.0319,6.53,82,0,2.19,CN,2021-01-16 03:11:09
519,Ballina,-28.8667,153.5667,82.4,65,75,13.8,AU,2021-01-16 03:11:09
520,Bosaso,11.2842,49.1816,71.19,77,0,1.16,SO,2021-01-16 03:11:10
521,Azuaga,38.2667,-5.6833,36.0,83,10,3.0,ES,2021-01-16 03:11:10
522,Stuttgart,48.7823,9.177,30.99,80,75,4.61,DE,2021-01-16 03:06:10
523,Meadow Lake,34.8014,-106.5436,45.0,18,1,6.91,US,2021-01-16 03:11:10
524,Tonj,7.2737,28.6822,67.06,26,58,5.35,SS,2021-01-16 03:11:10
525,Yenagoa,4.9247,6.2642,75.36,93,2,1.7,NG,2021-01-16 03:11:10
526,Puerto Madryn,-42.7692,-65.0385,62.71,66,100,23.33,AR,2021-01-16 03:06:58
527,Paamiut,61.994,-49.6678,23.54,93,94,15.26,GL,2021-01-16 03:11:10
528,Half Moon Bay,37.4636,-122.4286,59.0,76,1,11.5,US,2021-01-16 03:07:30
529,Panama City,8.9936,-79.5197,78.8,83,90,4.61,PA,2021-01-16 03:08:02
530,Gaujani,43.7333,25.7,30.99,93,90,4.61,RO,2021-01-16 03:11:10
531,Deputatskiy,69.3,139.9,-20.76,90,100,1.99,RU,2021-01-16 03:11:10
532,Belle Fourche,44.6714,-103.8522,33.01,34,75,5.75,US,2021-01-16 03:11:11
533,Naze,28.3667,129.4833,69.8,64,20,1.14,JP,2021-01-16 03:11:11
534,San Luis,-33.295,-66.3356,76.73,60,42,9.89,AR,2021-01-16 03:08:19
535,Mao,39.8885,4.2658,48.2,71,90,26.46,ES,2021-01-16 03:11:11
536,Mnogovershinnyy,53.9353,139.9242,-10.89,85,0,2.53,RU,2021-01-16 03:11:11
537,Tabasalu,59.4303,24.5331,19.99,86,90,5.75,EE,2021-01-16 03:11:11
538,Saint-Louis,16.3333,-15.0,71.76,20,100,12.66,SN,2021-01-16 03:11:11
539,Kushmurun,52.4503,64.6311,17.51,92,100,10.85,KZ,2021-01-16 03:11:11
540,Port Hardy,50.6996,-127.4199,46.4,93,40,3.44,CA,2021-01-16 03:11:11
541,Shakiso,5.75,38.9167,55.72,60,8,3.62,ET,2021-01-16 03:11:12
542,Ikungi,-5.1333,34.7667,57.85,96,10,1.25,TZ,2021-01-16 03:09:11
543,Ganzhou,28.8184,115.4327,50.99,47,63,11.16,CN,2021-01-16 03:11:12
544,Osypenko,46.9136,36.8253,21.99,25,54,8.99,UA,2021-01-16 03:11:12
545,Kudahuvadhoo,2.6708,72.8944,81.07,70,32,10.6,MV,2021-01-16 03:11:12
546,Ulladulla,-35.35,150.4667,75.99,25,0,13.8,AU,2021-01-16 03:11:12
547,Bilibino,68.0546,166.4372,-16.56,85,100,1.39,RU,2021-01-16 03:11:12
548,Tiznit,29.5833,-9.5,48.06,62,0,0.02,MA,2021-01-16 03:11:12
549,Buckeye,33.3703,-112.5838,64.0,16,0,1.99,US,2021-01-16 03:11:12
550,Bhigvan,18.3167,74.7667,75.09,50,81,6.82,IN,2021-01-16 03:11:12
551,Amol,36.4696,52.3507,50.14,61,0,1.68,IR,2021-01-16 03:11:13
552,Sikonge,-5.6333,32.7667,59.86,97,3,3.09,TZ,2021-01-16 03:11:13
553,Gamba,-2.65,10.0,76.64,86,96,7.16,GA,2021-01-16 03:11:13
554,Anadyr,64.75,177.4833,-2.0,78,75,11.18,RU,2021-01-16 03:11:13
555,Dubbo,-32.25,148.6167,75.2,23,0,17.27,AU,2021-01-16 03:11:13
556,Amatitan,20.8333,-103.7167,63.0,48,62,3.0,MX,2021-01-16 03:11:13
557,Aljezur,37.3191,-8.8033,39.99,100,0,6.38,PT,2021-01-16 03:10:38
558,Banda Aceh,5.5577,95.3222,80.8,79,40,7.16,ID,2021-01-16 03:11:13
559,Noyabrsk,63.1994,75.4507,4.89,95,100,11.97,RU,2021-01-16 03:11:13
560,Fort Nelson,58.8053,-122.7002,19.4,86,75,6.91,CA,2021-01-16 03:11:14
561,Lompoc,34.6391,-120.4579,57.2,71,95,8.25,US,2021-01-16 03:07:30
562,Seymchan,62.8833,152.4333,-28.79,83,100,1.39,RU,2021-01-16 03:11:14
563,Luganville,-15.5333,167.1667,85.73,74,100,2.51,VU,2021-01-16 03:11:14
564,Torremolinos,36.6204,-4.4998,53.6,47,0,20.71,ES,2021-01-16 03:11:14
565,Ithaca,42.4406,-76.4966,41.0,100,90,8.05,US,2021-01-16 03:09:07
566,Saint-Denis,48.9167,2.3333,33.01,86,90,1.14,FR,2021-01-16 03:11:14
567,Ixtapa,20.7,-105.2,69.01,94,90,1.83,MX,2021-01-16 03:11:14
568,Luderitz,-26.6481,15.1594,62.51,83,0,9.15,NA,2021-01-16 03:11:14
569,Bacalar,18.6667,-88.3833,71.44,94,70,4.0,MX,2021-01-16 03:11:14
570,Esterhazy,50.65,-102.0843,12.2,92,100,4.61,CA,2021-01-16 03:11:14
571,Santa Maria Del Oro,25.9333,-105.3667,50.72,40,0,5.84,MX,2021-01-16 03:11:15
572,Jackson,42.4165,-122.8345,46.99,90,75,1.72,US,2021-01-16 03:11:15
573,Qui Nhon,13.7667,109.2333,72.91,76,51,8.55,VN,2021-01-16 03:10:05
574,Lincoln,40.8,-96.667,30.2,74,90,20.71,US,2021-01-16 03:08:26
575,Mouila,-1.8685,11.0559,72.14,94,92,1.12,GA,2021-01-16 03:11:15
576,Port Macquarie,-31.4333,152.9167,84.99,26,19,1.99,AU,2021-01-16 03:11:15
577,Petrivka,46.9695,30.9591,19.4,79,75,5.88,UA,2021-01-16 03:11:15
578,Camacari,-12.6975,-38.3242,80.6,74,40,10.36,BR,2021-01-16 03:11:15
579,Ust-Kuyga,70.0167,135.6,-28.05,83,97,2.19,RU,2021-01-16 03:11:15
580,San Giovanni In Persiceto,44.64,11.1841,34.0,86,75,2.3,IT,2021-01-16 03:11:15
581,Thanh Hoa,19.8,105.7667,67.69,72,99,3.18,VN,2021-01-16 03:11:16
582,Cap-Aux-Meules,47.3821,-61.8597,30.2,80,99,9.22,CA,2021-01-16 03:10:03
583,Gulu,2.7746,32.299,71.47,40,79,4.07,UG,2021-01-16 03:11:16
584,Hami,42.8,93.45,16.3,72,0,1.86,CN,2021-01-16 03:11:16
585,Dwarka,22.2394,68.9678,68.11,50,0,8.93,IN,2021-01-16 03:08:21
586,Benguela,-12.5763,13.4055,72.61,76,0,2.73,AO,2021-01-16 03:11:16
587,Talavera,15.6167,120.9333,82.4,65,75,6.91,PH,2021-01-16 03:11:16
588,Linjiang,41.8069,126.9078,10.11,81,16,1.45,CN,2021-01-16 03:11:17
589,Arman,59.7,150.1667,-12.69,76,26,5.5,RU,2021-01-16 03:11:17
590,Jining,35.405,116.5814,35.2,65,89,3.22,CN,2021-01-16 03:11:17
591,Huaicheng,23.9051,112.1931,74.03,25,6,0.49,CN,2021-01-16 03:11:17
592,Diffa,13.3154,12.6113,62.58,28,0,8.66,NE,2021-01-16 03:11:17
593,Sambava,-14.2667,50.1667,77.52,88,43,6.51,MG,2021-01-16 03:11:17
594,Richards Bay,-28.783,32.0377,77.36,88,90,8.46,ZA,2021-01-16 03:11:17
595,Gogrial,8.5332,28.1004,65.23,27,44,5.64,SS,2021-01-16 03:11:17
596,Teya,60.3778,92.6267,-11.67,86,100,4.23,RU,2021-01-16 03:11:17
597,Sao Jose Da Coroa Grande,-8.8978,-35.1478,77.04,78,100,7.02,BR,2021-01-16 03:11:18
598,Sao Felix Do Xingu,-6.6447,-51.995,72.28,94,100,0.58,BR,2021-01-16 03:11:18
599,Chunoyar,57.4467,97.3217,-7.35,88,100,5.17,RU,2021-01-16 03:11:18
600,Nago,26.5881,127.9761,71.6,56,75,10.36,JP,2021-01-16 03:11:18
601,Qinzhou,21.95,108.6167,66.88,51,100,3.49,CN,2021-01-16 03:11:18
602,Gimli,50.6336,-96.9907,8.6,85,84,5.75,CA,2021-01-16 03:11:18
603,Grindavik,63.8424,-22.4338,35.6,100,90,14.97,IS,2021-01-16 03:11:18
604,Zhanaozen,43.3,52.8,33.04,94,59,9.84,KZ,2021-01-16 03:11:19
605,Fort Saint James,54.4333,-124.25,29.01,95,0,4.88,CA,2021-01-16 03:11:19
606,Santa Fe,-31.6333,-60.7,69.01,94,57,1.01,AR,2021-01-16 03:09:13
607,Camacha,33.0833,-16.3333,57.2,82,40,6.91,PT,2021-01-16 03:11:19
608,Gondanglegi,-7.7479,112.0132,84.85,66,100,5.77,ID,2021-01-16 03:11:19
609,Rapid Valley,44.0625,-103.1463,28.99,53,1,2.26,US,2021-01-16 03:11:19
610,Quatre Cocos,-20.2078,57.7625,82.99,89,40,11.5,MU,2021-01-16 03:11:19
611,Pringsewu,-5.3582,104.9744,82.83,69,100,1.23,ID,2021-01-16 03:11:19
612,Kirakira,-10.4544,161.9205,81.75,79,100,6.44,SB,2021-01-16 03:11:19
613,Homer,59.6425,-151.5483,35.01,93,1,3.44,US,2021-01-16 03:11:20
614,Kez,57.8979,53.7152,7.86,95,100,9.86,RU,2021-01-16 03:11:20
615,Karpathos,35.507,27.2132,53.6,66,59,4.61,GR,2021-01-16 03:11:20
616,Cove,7.221,2.3402,73.74,85,2,1.5,BJ,2021-01-16 03:07:06
617,Asuncion Nochixtlan,17.4667,-97.2333,52.34,84,100,5.35,MX,2021-01-16 03:11:21
618,San Policarpo,12.1791,125.5072,79.27,91,48,14.7,PH,2021-01-16 03:11:21
619,Lasa,46.6166,10.7002,19.99,79,0,9.22,IT,2021-01-16 03:11:21
620,Koraput,18.8167,82.7167,66.2,43,0,1.16,IN,2021-01-16 03:11:21
621,Monte Alto,-21.2611,-48.4964,67.84,89,100,8.28,BR,2021-01-16 03:11:22
622,Kurilsk,45.2333,147.8833,31.28,98,100,33.02,RU,2021-01-16 03:11:22
623,Mehamn,71.0357,27.8492,36.5,82,96,21.34,NO,2021-01-16 03:11:22
624,Roma,43.2128,-75.4557,37.99,75,90,17.27,US,2021-01-16 03:11:23
625,Ca Mau,9.1769,105.15,79.66,67,50,7.78,VN,2021-01-16 03:11:23
626,Kysyl-Syr,63.8986,122.7617,-44.75,77,78,2.08,RU,2021-01-16 03:11:23
627,Mayo,38.8876,-76.5119,46.4,100,90,6.91,US,2021-01-16 03:11:23
628,Pacific Grove,36.6177,-121.9166,64.4,48,1,3.44,US,2021-01-16 03:06:34
629,Itarema,-2.9248,-39.9167,78.31,82,66,11.5,BR,2021-01-16 03:11:23
630,Puerres,1.1937,-77.2666,52.68,93,99,0.76,CO,2021-01-16 03:11:24
631,Manokwari,-0.8667,134.0833,83.97,67,100,2.28,ID,2021-01-16 03:11:24
632,Humaita,-7.5061,-63.0208,74.07,95,95,1.95,BR,2021-01-16 03:11:24
633,Moses Lake,47.1301,-119.2781,34.0,75,1,4.61,US,2021-01-16 03:08:56
634,Conde,-7.2597,-34.9075,75.2,88,40,3.44,BR,2021-01-16 03:11:24
635,Mlimba,-8.8,35.8167,68.83,87,77,1.9,TZ,2021-01-16 03:11:24
636,Anloga,5.7947,0.8973,78.8,89,20,6.91,GH,2021-01-16 03:11:24
637,Collierville,35.042,-89.6645,41.0,48,75,13.8,US,2021-01-16 03:08:30
638,San Andres,12.5847,-81.7006,80.6,74,40,9.22,CO,2021-01-16 03:11:24
639,Hammerfest,70.6634,23.6821,35.6,87,90,8.05,NO,2021-01-16 03:08:54
640,Augusta,48.3667,10.8833,26.6,93,90,5.75,DE,2021-01-16 03:11:24
641,Margate,51.3813,1.3862,37.0,70,100,4.0,GB,2021-01-16 03:11:24
642,Maraa,-1.8333,-65.3667,74.37,95,99,0.92,BR,2021-01-16 03:11:25
643,Antigonish,45.6169,-61.9986,30.99,77,100,3.0,CA,2021-01-16 03:11:25
644,Wawa,9.9022,4.4192,70.18,23,2,6.51,NG,2021-01-16 03:11:25
645,Smithers,54.7804,-127.1743,37.4,70,40,8.05,CA,2021-01-16 03:11:25
646,Neuquen,-38.9516,-68.0591,64.4,36,0,17.27,AR,2021-01-16 03:07:29
647,Marfino,55.7028,37.3822,6.8,78,75,8.95,RU,2021-01-16 03:11:25
648,Port-Gentil,-0.7193,8.7815,79.3,81,11,9.53,GA,2021-01-16 03:11:25
649,Gospic,44.5461,15.3747,24.8,68,0,4.61,HR,2021-01-16 03:11:25
650,Teruel,40.6667,-0.6667,48.2,86,0,16.11,ES,2021-01-16 03:11:25
651,San Onofre,9.7359,-75.5263,76.62,82,100,4.5,CO,2021-01-16 03:11:26
652,Aguilas,37.4063,-1.5829,48.99,38,0,8.01,ES,2021-01-16 03:11:26
653,Mareeba,-17.0,145.4333,89.01,62,90,13.8,AU,2021-01-16 03:11:26
654,Saint-Joseph,-21.3667,55.6167,80.6,69,75,4.61,RE,2021-01-16 03:11:26
655,Atambua,-9.1061,124.8925,78.98,83,69,2.93,ID,2021-01-16 03:11:26
656,Emerald,-23.5333,148.1667,95.0,38,0,3.44,AU,2021-01-16 03:11:26
657,Faya,18.3851,42.4509,50.0,87,29,8.05,SA,2021-01-16 03:11:26
658,Diapaga,12.0708,1.7889,67.71,22,0,5.86,BF,2021-01-16 03:11:26
659,Roblin,51.23,-101.3565,8.26,95,100,3.38,CA,2021-01-16 03:06:40
660,Svetlogorsk,52.6333,29.7333,-1.08,92,95,6.64,BY,2021-01-16 03:11:26
661,Hellvik,59.9156,5.781,28.99,79,6,1.99,NO,2021-01-16 03:11:26
662,Inuvik,68.3499,-133.7218,-7.6,77,100,6.91,CA,2021-01-16 03:08:55
663,Cairns,-16.9167,145.7667,89.01,62,90,13.8,AU,2021-01-16 03:10:13
664,Turochak,52.2576,87.1224,2.01,88,100,2.59,RU,2021-01-16 03:11:27
665,Vila Franca Do Campo,37.7167,-25.4333,61.0,100,75,13.8,PT,2021-01-16 03:11:27
666,Bentiu,9.2333,29.8333,67.03,26,0,5.64,SS,2021-01-16 03:11:27
667,Kyren,51.6828,102.1408,5.41,77,100,5.39,RU,2021-01-16 03:11:27
668,Gloucester,51.8657,-2.2431,39.99,85,100,25.99,GB,2021-01-16 03:11:27
669,Poum,-20.2333,164.0167,83.73,75,100,8.37,NC,2021-01-16 03:11:27
670,Katangli,51.7102,143.2326,-8.75,87,8,3.89,RU,2021-01-16 03:11:27
671,Astoria,46.1879,-123.8313,44.01,93,20,3.44,US,2021-01-16 03:11:28
672,Poltava,49.5937,34.5407,5.49,94,0,7.83,UA,2021-01-16 03:11:28
673,At-Bashi,41.1702,75.8106,16.93,51,0,4.63,KG,2021-01-16 03:11:28
674,Morro Bay,35.3658,-120.8499,64.99,54,0,10.04,US,2021-01-16 03:10:45
675,Ust-Nera,64.5667,143.2,-22.65,77,100,2.01,RU,2021-01-16 03:11:28
676,Saiha,22.4833,92.9667,67.64,41,0,0.25,IN,2021-01-16 03:11:28
677,Chapleau,47.8405,-83.4034,28.4,93,90,6.91,CA,2021-01-16 03:11:28
678,Port Lincoln,-34.7333,135.8667,63.7,52,24,13.13,AU,2021-01-16 03:11:28
679,Beyneu,45.3167,55.2,34.41,91,86,18.57,KZ,2021-01-16 03:11:28
680,Sonoita,31.85,-112.8333,61.0,17,0,7.52,MX,2021-01-16 03:11:28
681,Dakar,14.6937,-17.4441,64.4,77,0,6.91,SN,2021-01-16 03:11:09
682,Chara,56.9064,118.2631,-12.93,78,100,1.52,RU,2021-01-16 03:11:28
683,Luena,-11.7833,19.9167,57.33,97,73,3.31,AO,2021-01-16 03:11:29
684,Kamarion,36.8,25.8167,52.0,72,68,3.0,GR,2021-01-16 03:11:29
685,Lyuban,52.7985,28.0048,-8.5,90,83,6.02,BY,2021-01-16 03:11:29
686,Nuuk,64.1835,-51.7216,23.0,80,90,4.61,GL,2021-01-16 03:11:29
687,Baoro,5.6667,15.9667,63.54,29,36,2.33,CF,2021-01-16 03:11:12
688,Saint Anthony,45.0205,-93.218,35.01,86,90,10.36,US,2021-01-16 03:11:29
689,Talaya,61.3833,152.75,-34.29,79,34,0.87,RU,2021-01-16 03:11:29
690,Banyo,6.75,11.8167,60.15,32,1,2.82,CM,2021-01-16 03:11:29
691,Chintamani,13.4,78.0667,66.2,100,75,2.3,IN,2021-01-16 03:07:10
692,Ariquemes,-9.9133,-63.0408,72.41,95,100,2.33,BR,2021-01-16 03:07:26
693,Batagay,67.6333,134.6333,-33.81,81,100,1.48,RU,2021-01-16 03:11:29
694,Trelew,-43.249,-65.3051,61.7,67,100,18.7,AR,2021-01-16 03:11:29
695,Byumba,-1.5763,30.0675,51.31,100,71,2.24,RW,2021-01-16 03:11:30
696,Karasburg,-28.0167,18.75,59.13,60,0,11.43,NA,2021-01-16 03:11:30
697,Samana,19.2056,-69.3369,74.1,89,61,6.04,DO,2021-01-16 03:11:30
